{
    "Item": [
      {
        "ImageURL": "https://search.pstatic.net/common/?src=http%3A%2F%2Fblogfiles.naver.net%2FMjAyMjAxMDFfMjE5%2FMDAxNjQxMDM3OTA4MTcz.H8va5VnGLkN0fPTjo0VjHbfcpSNmSHAxZoKYB4xT9tQg.3juyuhWj4J_F3gO_UgUB3FZ-aXo0agjQOEwy3T-IE-Eg.JPEG.wl416%2FIMG_7569.jpg&type=sc960_832",
        "StoreType": "비건식당",
        "StoreName": "칙피스 성수점",
        "OpeningHours": "11:30 ~ 20:30",
        "Address" : "서울 성동구 연무장5길 9-16 블루스톤타워 1층 101호"
      },
      {
        "ImageURL": "https://search.pstatic.net/common/?src=http%3A%2F%2Fblogfiles.naver.net%2FMjAyMjAxMDFfMjE5%2FMDAxNjQxMDM3OTA4MTcz.H8va5VnGLkN0fPTjo0VjHbfcpSNmSHAxZoKYB4xT9tQg.3juyuhWj4J_F3gO_UgUB3FZ-aXo0agjQOEwy3T-IE-Eg.JPEG.wl416%2FIMG_7569.jpg&type=sc960_832",
        "StoreType": "비건식당",
        "StoreName": "칙피스 성수점",
        "OpeningHours": "11:30 ~ 20:30",
        "Address" : "서울 성동구 연무장5길 9-16 블루스톤타워 1층 101호"
      },
      {
        "ImageURL": "https://search.pstatic.net/common/?src=http%3A%2F%2Fblogfiles.naver.net%2FMjAyMjAxMDFfMjE5%2FMDAxNjQxMDM3OTA4MTcz.H8va5VnGLkN0fPTjo0VjHbfcpSNmSHAxZoKYB4xT9tQg.3juyuhWj4J_F3gO_UgUB3FZ-aXo0agjQOEwy3T-IE-Eg.JPEG.wl416%2FIMG_7569.jpg&type=sc960_832",
        "StoreType": "비건식당",
        "StoreName": "칙피스 성수점",
        "OpeningHours": "11:30 ~ 20:30",
        "Address" : "서울 성동구 연무장5길 9-16 블루스톤타워 1층 101호"
      },
      {
        "ImageURL": "https://search.pstatic.net/common/?src=http%3A%2F%2Fblogfiles.naver.net%2FMjAyMjAxMDFfMjE5%2FMDAxNjQxMDM3OTA4MTcz.H8va5VnGLkN0fPTjo0VjHbfcpSNmSHAxZoKYB4xT9tQg.3juyuhWj4J_F3gO_UgUB3FZ-aXo0agjQOEwy3T-IE-Eg.JPEG.wl416%2FIMG_7569.jpg&type=sc960_832",
        "StoreType": "비건식당",
        "StoreName": "칙피스 성수점",
        "OpeningHours": "11:30 ~ 20:30",
        "Address" : "서울 성동구 연무장5길 9-16 블루스톤타워 1층 101호"
      },
      {
        "ImageURL": "https://search.pstatic.net/common/?src=http%3A%2F%2Fblogfiles.naver.net%2FMjAyMjAxMDFfMjE5%2FMDAxNjQxMDM3OTA4MTcz.H8va5VnGLkN0fPTjo0VjHbfcpSNmSHAxZoKYB4xT9tQg.3juyuhWj4J_F3gO_UgUB3FZ-aXo0agjQOEwy3T-IE-Eg.JPEG.wl416%2FIMG_7569.jpg&type=sc960_832",
        "StoreType": "비건식당",
        "StoreName": "칙피스 성수점",
        "OpeningHours": "11:30 ~ 20:30",
        "Address" : "서울 성동구 연무장5길 9-16 블루스톤타워 1층 101호"
      },
      {
        "ImageURL": "https://search.pstatic.net/common/?src=http%3A%2F%2Fblogfiles.naver.net%2FMjAyMjAxMDFfMjE5%2FMDAxNjQxMDM3OTA4MTcz.H8va5VnGLkN0fPTjo0VjHbfcpSNmSHAxZoKYB4xT9tQg.3juyuhWj4J_F3gO_UgUB3FZ-aXo0agjQOEwy3T-IE-Eg.JPEG.wl416%2FIMG_7569.jpg&type=sc960_832",
        "StoreType": "비건식당",
        "StoreName": "칙피스 성수점",
        "OpeningHours": "11:30 ~ 20:30",
        "Address" : "서울 성동구 연무장5길 9-16 블루스톤타워 1층 101호"
      },
      {
        "ImageURL": "https://search.pstatic.net/common/?src=http%3A%2F%2Fblogfiles.naver.net%2FMjAyMjAxMDFfMjE5%2FMDAxNjQxMDM3OTA4MTcz.H8va5VnGLkN0fPTjo0VjHbfcpSNmSHAxZoKYB4xT9tQg.3juyuhWj4J_F3gO_UgUB3FZ-aXo0agjQOEwy3T-IE-Eg.JPEG.wl416%2FIMG_7569.jpg&type=sc960_832",
        "StoreType": "비건식당",
        "StoreName": "칙피스 성수점",
        "OpeningHours": "11:30 ~ 20:30",
        "Address" : "서울 성동구 연무장5길 9-16 블루스톤타워 1층 101호"
      },
      {
        "ImageURL": "https://search.pstatic.net/common/?src=http%3A%2F%2Fblogfiles.naver.net%2FMjAyMjAxMDFfMjE5%2FMDAxNjQxMDM3OTA4MTcz.H8va5VnGLkN0fPTjo0VjHbfcpSNmSHAxZoKYB4xT9tQg.3juyuhWj4J_F3gO_UgUB3FZ-aXo0agjQOEwy3T-IE-Eg.JPEG.wl416%2FIMG_7569.jpg&type=sc960_832",
        "StoreType": "비건식당",
        "StoreName": "칙피스 성수점",
        "OpeningHours": "11:30 ~ 20:30",
        "Address" : "서울 성동구 연무장5길 9-16 블루스톤타워 1층 101호"
      },
      {
        "ImageURL": "https://search.pstatic.net/common/?src=http%3A%2F%2Fblogfiles.naver.net%2FMjAyMjAxMDFfMjE5%2FMDAxNjQxMDM3OTA4MTcz.H8va5VnGLkN0fPTjo0VjHbfcpSNmSHAxZoKYB4xT9tQg.3juyuhWj4J_F3gO_UgUB3FZ-aXo0agjQOEwy3T-IE-Eg.JPEG.wl416%2FIMG_7569.jpg&type=sc960_832",
        "StoreType": "비건식당",
        "StoreName": "칙피스 성수점",
        "OpeningHours": "11:30 ~ 20:30",
        "Address" : "서울 성동구 연무장5길 9-16 블루스톤타워 1층 101호"
      },
      {
        "ImageURL": "https://search.pstatic.net/common/?src=http%3A%2F%2Fblogfiles.naver.net%2FMjAyMjAxMDFfMjE5%2FMDAxNjQxMDM3OTA4MTcz.H8va5VnGLkN0fPTjo0VjHbfcpSNmSHAxZoKYB4xT9tQg.3juyuhWj4J_F3gO_UgUB3FZ-aXo0agjQOEwy3T-IE-Eg.JPEG.wl416%2FIMG_7569.jpg&type=sc960_832",
        "StoreType": "비건식당",
        "StoreName": "칙피스 성수점",
        "OpeningHours": "11:30 ~ 20:30",
        "Address" : "서울 성동구 연무장5길 9-16 블루스톤타워 1층 101호"
      },
      {
        "ImageURL": "https://search.pstatic.net/common/?src=http%3A%2F%2Fblogfiles.naver.net%2FMjAyMjAxMDFfMjE5%2FMDAxNjQxMDM3OTA4MTcz.H8va5VnGLkN0fPTjo0VjHbfcpSNmSHAxZoKYB4xT9tQg.3juyuhWj4J_F3gO_UgUB3FZ-aXo0agjQOEwy3T-IE-Eg.JPEG.wl416%2FIMG_7569.jpg&type=sc960_832",
        "StoreType": "비건식당",
        "StoreName": "칙피스 성수점",
        "OpeningHours": "11:30 ~ 20:30",
        "Address" : "서울 성동구 연무장5길 9-16 블루스톤타워 1층 101호"
      },
      {
        "ImageURL": "https://search.pstatic.net/common/?src=http%3A%2F%2Fblogfiles.naver.net%2FMjAyMjAxMDFfMjE5%2FMDAxNjQxMDM3OTA4MTcz.H8va5VnGLkN0fPTjo0VjHbfcpSNmSHAxZoKYB4xT9tQg.3juyuhWj4J_F3gO_UgUB3FZ-aXo0agjQOEwy3T-IE-Eg.JPEG.wl416%2FIMG_7569.jpg&type=sc960_832",
        "StoreType": "비건식당",
        "StoreName": "칙피스 성수점",
        "OpeningHours": "11:30 ~ 20:30",
        "Address" : "서울 성동구 연무장5길 9-16 블루스톤타워 1층 101호"
      }
    ]
  }
  